{"merchantId":100782,"merchant":"Cеть салонов женского белья «Золотая Стрекоза»","merchantAddress":[{"key":102236,"address1":"Красная Площадь, 3, ТД «ГУМ» 3-я линия, 3-й этаж","address2":"","city":"Москва","state":"-","postalCode":"-","countryName":"Российская Федерация","languageName":"Russian","latitude":"55.754514","longitude":"37.621972"},{"key":102237,"address1":"ул. Вавилова, 3, ТРЦ «Гагаринский», 1-й этаж","address2":"","city":"Москва","state":"-","postalCode":"-","countryName":"Российская Федерация","languageName":"Russian","latitude":"55.70688","longitude":"37.591646"},{"key":102238,"address1":"Рублевское шоссе, 48/1. ТЦ «Рублевский»","address2":"","city":"Москва","state":"-","postalCode":"-","countryName":"Российская Федерация","languageName":"Russian","latitude":"55.754036","longitude":"37.405755"},{"key":102239,"address1":"71 км МКАД. ТРЦ «ВЭЙПАРК»","address2":"","city":"Москва","state":"-","postalCode":"-","countryName":"Российская Федерация","languageName":"Russian","latitude":"55.858841","longitude":"37.395067"},{"key":102240,"address1":"Ореховый бульвар, вл. 14, стр. 3. ТРЦ «Домодедовский»","address2":"","city":"Москва","state":"-","postalCode":"-","countryName":"Российская Федерация","languageName":"Russian","latitude":"55.609673","longitude":"37.71972"},{"key":102241,"address1":"ул. Большая Черемушкинская, 1. ТРЦ «РИО»","address2":"","city":"Москва","state":"-","postalCode":"-","countryName":"Российская Федерация","languageName":"Russian","latitude":"55.689515","longitude":"37.602367"},{"key":102242,"address1":"Балаклавский проспект, 5, ТЦ «Штаер-Чертаново»","address2":"","city":"Москва","state":"-","postalCode":"-","countryName":"Российская Федерация","languageName":"Russian","latitude":"55.640619","longitude":"37.608533"},{"key":102243,"address1":"ул. Шаболовка, 10. ТЦ «Метромаркет - Шаболовская»","address2":"","city":"Москва","state":"-","postalCode":"-","countryName":"Российская Федерация","languageName":"Russian","latitude":"55.723443","longitude":"37.610137"},{"key":102245,"address1":"Ярославское шоссе, 54. ТЦ «НАШ Гипермаркет»","address2":"","city":"Москва","state":"-","postalCode":"-","countryName":"Российская Федерация","languageName":"Russian","latitude":"55.865492","longitude":"37.704417"},{"key":102246,"address1":"ул. Большая Серпуховская, 45. ТЦ «Ашан-Подольск»","address2":"","city":"Подольск","state":"Московская область","postalCode":"-","countryName":"Российская Федерация","languageName":"Russian","latitude":"55.419939","longitude":"37.547788"},{"key":102247,"address1":"д. Марфино, вл. 11. ТЦ «Ашан - Марфино»","address2":"","city":"Одинцовский район","state":"Московская область","postalCode":"-","countryName":"Российская Федерация","languageName":"Russian","latitude":"55.707966","longitude":"37.385754"},{"key":102249,"address1":"ул. Люблинская, 153. ТК «Л-153»","address2":"","city":"Москва","state":"Московская область","postalCode":"-","countryName":"Российская Федерация","languageName":"Russian","latitude":"55.658553","longitude":"37.741985"},{"key":102250,"address1":"ул. Гарибальди, 23. ТЦ «Панорама»","address2":"","city":"Москва","state":"-","postalCode":"-","countryName":"Российская Федерация","languageName":"Russian","latitude":"55.67152","longitude":"37.553363"},{"key":102251,"address1":"ул. Ярцевская, 25. ТК «Трамплин»","address2":"","city":"Москва","state":"-","postalCode":"-","countryName":"Российская Федерация","languageName":"Russian","latitude":"55.741016","longitude":"37.415565"},{"key":102252,"address1":"Боровское шоссе, 6. ТЦ «Солнечный Рай»","address2":"","city":"Москва","state":"-","postalCode":"-","countryName":"Российская Федерация","languageName":"Russian","latitude":"55.658707","longitude":"37.401497"},{"key":102253,"address1":"ул. Днепропетровская, 2. ТРК «Глобал-Сити»","address2":"","city":"Москва","state":"-","postalCode":"-","countryName":"Российская Федерация","languageName":"Russian","latitude":"55.622791","longitude":"37.604156"},{"key":102254,"address1":"Варшавское шоссе, 87б. ТЦ «Варшавский»","address2":"","city":"Москва","state":"-","postalCode":"-","countryName":"Российская Федерация","languageName":"Russian","latitude":"55.65349","longitude":"37.62073"},{"key":102257,"address1":"ул. Вознесенская, 32а. ТРК «Счастливая 7-я»","address2":"","city":"Сергиев Посад","state":"Московская область","postalCode":"-","countryName":"Российская Федерация","languageName":"Russian","latitude":"56.303674","longitude":"38.133068"},{"key":102258,"address1":"Шереметьево-2, ТГ «Аэроэкспресс»","address2":"","city":"Химки","state":"Московская область","postalCode":"-","countryName":"Российская Федерация","languageName":"Russian","latitude":"55.966869","longitude":"37.415897"},{"key":102259,"address1":"проспект Андропова, 8, ТРЦ «Мегаполис»","address2":"","city":"Москва","state":"-","postalCode":"-","countryName":"Российская Федерация","languageName":"Russian","latitude":"55.695734","longitude":"37.66539"},{"key":102260,"address1":"Хорошевское шоссе, 16, ТЦ «На Беговой»","address2":"","city":"Москва","state":"-","postalCode":"-","countryName":"Российская Федерация","languageName":"Russian","latitude":"55.774393","longitude":"37.545786"},{"key":102261,"address1":"ул. Верхняя Красносельская, 3а, ТДК «Тройка», 2-й этаж","address2":"","city":"Москва","state":"-","postalCode":"-","countryName":"Российская Федерация","languageName":"Russian","latitude":"55.785281","longitude":"37.665665"},{"key":102262,"address1":"Шараповский проезд, вл.2. ТРК «Красный кит»","address2":"","city":"Мытищи","state":"Московская область","postalCode":"-","countryName":"Российская Федерация","languageName":"Russian","latitude":"55.916469","longitude":"37.758858"},{"key":102266,"address1":"Сущевский вал, 5. ТЦ «Савеловский»","address2":"","city":"Москва","state":"-","postalCode":"-","countryName":"Российская Федерация","languageName":"Russian","latitude":"55.794706","longitude":"37.592305"},{"key":102267,"address1":"Ореховый бульвар, 22А, ТРК «Облака», 2-й этаж","address2":"","city":"Москва","state":"-","postalCode":"-","countryName":"Российская Федерация","languageName":"Russian","latitude":"55.611939","longitude":"37.732312"},{"key":102268,"address1":"ул. Поляны, 8, ТЦ «Вива!», 1-й этаж","address2":"","city":"Москва","state":"-","postalCode":"-","countryName":"Российская Федерация","languageName":"Russian","latitude":"55.565185","longitude":"37.55621"},{"key":102270,"address1":"ул. Миклухо-Маклая, 32А, ТЦ «Капитолий», 2-й этаж","address2":"","city":"Москва","state":"-","postalCode":"-","countryName":"Российская Федерация","languageName":"Russian","latitude":"55.640983","longitude":"37.530346"},{"key":102271,"address1":"Комсомольская площадь, 6. Универмаг «Московский»","address2":"","city":"Москва","state":"-","postalCode":"-","countryName":"Российская Федерация","languageName":"Russian","latitude":"55.775837","longitude":"37.660005"},{"key":102272,"address1":"проспект Ленина, 54б. ТРК «Европа Сити Молл»","address2":"","city":"Волгоград","state":"Южный федеральный округ","postalCode":"-","countryName":"Российская Федерация","languageName":"Russian","latitude":"48.725607","longitude":"44.541431"},{"key":102276,"address1":"ул. Кирова, 55, ТВК «Сити Молл», 1-й этаж","address2":"","city":"Новокузнецк","state":"Кемеровская область","postalCode":"-","countryName":"Российская Федерация","languageName":"Russian","latitude":"53.758486","longitude":"87.13796"},{"key":102278,"address1":"проспект Октября, 34. ТРК «СемьЯ»","address2":"","city":"Уфа","state":"Республика Башкортостан","postalCode":"-","countryName":"Российская Федерация","languageName":"Russian","latitude":"54.749596","longitude":"56.000395"},{"key":102279,"address1":"ул. Герцена, 94, ТРЦ «Вояж», 1-й этаж","address2":"","city":"Тюмень","state":"Уральский федеральный округ","postalCode":"-","countryName":"Российская Федерация","languageName":"Russian","latitude":"57.145955","longitude":"65.541688"},{"key":102280,"address1":"ул. Молдавская, 16. ТРК «Фокус»","address2":"","city":"Челябинск","state":"Уральский федеральный округ","postalCode":"-","countryName":"Российская Федерация","languageName":"Russian","latitude":"55.190457","longitude":"61.303116"},{"key":124918,"address1":"Пресненская наб., 2, ТРЦ «АФИМОЛЛ Сити»","address2":"","city":"Москва","state":"Московская область","postalCode":"-","countryName":"Российская Федерация","languageName":"Russian","latitude":"55.7491620","longitude":"37.5396640"},{"key":124919,"address1":"Новоугличское шоссе, 85, 2 этаж, ТЦ «Капитолий»","address2":"","city":"Сергиев Посад","state":"Московская область","postalCode":"141301","countryName":"Российская Федерация","languageName":"Russian","latitude":"56.3398620","longitude":"38.1249840"}],"merchantImages":[{"key":111907,"fileName":"ZolotayaStrekoza.png","imageResolution":"Low","description":"","promotionId":1,"promotionChannel":"Печатные СМИ","fileLocation":"https://www.visa.com/images/merchantoffers/2015-11/1448127364876.ZolotayaStrekoza.png","imageFileSize":"19.0 KB","imageFileHeight":"300 px","imageFileWidth":"400 px"}]}